[
   {
      "name": "Bugesera",
      "countryCode": "RW",
      "stateCode": "02",
      "latitude": "-2.205",
      "longitude": "30.145"
   },
   {
      "name": "Gatsibo",
      "countryCode": "RW",
      "stateCode": "02",
      "latitude": "-1.6",
      "longitude": "30.45"
   },
   {
      "name": "Kayonza",
      "countryCode": "RW",
      "stateCode": "02",
      "latitude": "-1.85",
      "longitude": "30.65"
   },
   {
      "name": "Kibungo",
      "countryCode": "RW",
      "stateCode": "02",
      "latitude": "-2.15970000",
      "longitude": "30.54270000"
   },
   {
      "name": "Kirehe",
      "countryCode": "RW",
      "stateCode": "02",
      "latitude": "-2.25",
      "longitude": "30.733333"
   },
   {
      "name": "Ngoma",
      "countryCode": "RW",
      "stateCode": "02",
      "latitude": "-2.183333",
      "longitude": "30.466667"
   },
   {
      "name": "Nyagatare",
      "countryCode": "RW",
      "stateCode": "02",
      "latitude": "-1.3",
      "longitude": "30.333333"
   },
   {
      "name": "Rwamagana",
      "countryCode": "RW",
      "stateCode": "02",
      "latitude": "-1.94870000",
      "longitude": "30.43470000"
   }
]